[
    {
        "id": 1,
        "image": "https://firebasestorage.googleapis.com/v0/b/jkuat-navigation.appspot.com/o/places%2Fengineering_building.jpeg?alt=media&token=3c70cd9c-aa83-4fd4-89d7-82d45478a288",
        "latitude": "-1.0959782",
        "longitude": "37.0142718",
        "name": "Engineering Laboratory Building",
        "short_name": "ELB"
    },
    {
        "id": 2,
        "image": "",
        "latitude": "-1.0955474",
        "longitude": "37.015117",
        "name": "Jkuat Mess",
        "short_name": "Mess"
    },
    {
        "id": 3,
        "image": "",
        "latitude": "-1.0952254",
        "longitude": "37.0160583",
        "name": "Jkuat Finance",
        "short_name": "Finance"
    },
    {
        "id": 4,
        "image": "",
        "latitude": "-1.096732",
        "longitude": "37.015159",
        "name": "Jkuat Library",
        "short_name": "Library"
    },
    {
        "id": 5,
        "image": "",
        "latitude": "-1.0912578",
        "longitude": "37.012299",
        "name": "Common Lecture Building",
        "short_name": "CLB"
    },
    {
        "id": 6,
        "image": "https://firebasestorage.googleapis.com/v0/b/jkuat-navigation.appspot.com/o/places%2Ftech_house.jpeg?alt=media&token=977c1d3f-092e-4b0e-a994-f34c1834157b",
        "latitude": "-1.0947548",
        "longitude": "37.0168646",
        "name": "Technology House",
        "short_name": "Tech House"
    },
    {
        "id": 7,
        "image": "",
        "latitude": "-1.0954406",
        "longitude": "37.0148563",
        "name": "Assembly Hall",
        "short_name": "Assembly Hall"
    },
    {
        "id": 8,
        "image": "",
        "latitude": "-1.0936307",
        "longitude": "37.0148474",
        "name": "Swimming Pool Annex",
        "short_name": "JKUAT Swimming Pool"
    },
    {
        "id": 9,
        "image": "",
        "latitude": "-1.0947711",
        "longitude": "37.0167258",
        "name": "Student's Centre",
        "short_name": "Studiz"
    }
]